{
"type": "FeatureCollection",
"name": "poi_pt_other",
"crs": { "type": "name", "properties": { "name": "urn:ogc:def:crs:OGC:1.3:CRS84" } },
"features": [
{ "type": "Feature", "properties": { "id": "1", "name": "ΔΗΜΑΡΧΕΙΟ" }, "geometry": { "type": "Point", "coordinates": [ 23.831197080633736, 38.052312881442113 ] } },
{ "type": "Feature", "properties": { "id": "2", "name": "ΚΛΕΙΣΤΟ ΓΥΜΝΑΣΤΗΡΙΟ ΠΡΩΤΟ ΓΥΜΝΑΣΙΟ ΜΕΛΙΣΣΙΩΝ" }, "geometry": { "type": "Point", "coordinates": [ 23.840517436959377, 38.0490247366007 ] } },
{ "type": "Feature", "properties": { "id": "3", "name": "ΓΥΜΝΑΣΤΗΡΙΟ ΠΕΝΤΕΛΗΣ" }, "geometry": { "type": "Point", "coordinates": [ 23.870747894567259, 38.056288491445265 ] } },
{ "type": "Feature", "properties": { "id": "4", "name": "ΚΛΕΙΣΤΟ ΓΥΜΝΑΣΤΗΡΙΟ ΝΕΑΣ ΠΕΝΤΕΛΗΣ" }, "geometry": { "type": "Point", "coordinates": [ 23.858201184599306, 38.056734275205123 ] } },
{ "type": "Feature", "properties": { "id": "5", "name": "ΔΗΜΟΤΙΚΟ ΚΟΛΥΜΒΗΤΗΡΙΟ" }, "geometry": { "type": "Point", "coordinates": [ 23.836749152364128, 38.053053896091704 ] } },
{ "type": "Feature", "properties": { "id": "6", "name": "ΚΛΕΙΣΤΟ ΓΥΜΝΑΣΤΗΡΙΟ ΛΥΚΕΙΟΥ ΜΕΛΙΣΣΙΩΝ" }, "geometry": { "type": "Point", "coordinates": [ 23.839867015223152, 38.055025298458204 ] } },
{ "type": "Feature", "properties": { "id": "7", "name": "ΚΛΕΙΣΤΟ ΓΥΜΝΑΣΤΗΡΙΟ ΜΕΛΙΣΣΙΩΝ" }, "geometry": { "type": "Point", "coordinates": [ 23.829597275401326, 38.047682485513619 ] } },
{ "type": "Feature", "properties": { "id": "8", "name": "ΚΕΝΤΡΟ ΥΠΟΔΟΧΗΣ ΣΕΙΣΜΟΠΛΗΚΤΩΝ" }, "geometry": { "type": "Point", "coordinates": [ 23.870535446702355, 38.056141300109886 ] } },
{ "type": "Feature", "properties": { "id": "9", "name": "ΔΗΜΟΣΙΟ ΥΠΑΙΘΡΙΟ ΠΑΡΚΙΝΓΚ" }, "geometry": { "type": "Point", "coordinates": [ 23.839684686230573, 38.051255976027811 ] } },
{ "type": "Feature", "properties": { "id": "10", "name": "ΔΗΜΟΤΙΚΟΣ ΧΩΡΟΣ ΣΤΑΘΜΕΥΣΗΣ" }, "geometry": { "type": "Point", "coordinates": [ 23.831996858804281, 38.051030035339238 ] } },
{ "type": "Feature", "properties": { "id": "11", "name": "ΕΘΝΙΚΟ ΑΣΤΕΡΟΣΚΟΠΕΙΟ ΑΘΗΝΩΝ" }, "geometry": { "type": "Point", "coordinates": [ 23.864576676729644, 38.047229800635314 ] } },
{ "type": "Feature", "properties": { "id": "12", "name": "ΔΗΜΑΡΧΕΙΟ ΝΕΑΣ ΠΕΝΤΕΛΗΣ" }, "geometry": { "type": "Point", "coordinates": [ 23.856274319844367, 38.058508867083908 ] } },
{ "type": "Feature", "properties": { "id": "13", "name": "ΔΗΜΑΡΧΕΙΟ ΠΕΝΤΕΛΗΣ" }, "geometry": { "type": "Point", "coordinates": [ 23.868220069549189, 38.049465861895555 ] } },
{ "type": "Feature", "properties": { "id": "14", "name": "ΚΕΠ ΠΕΝΤΕΛΗΣ" }, "geometry": { "type": "Point", "coordinates": [ 23.868362202514486, 38.049507051209545 ] } },
{ "type": "Feature", "properties": { "id": "15", "name": "ΝΕΚΡΟΤΑΦΕΙΟ ΠΕΝΤΕΛΗΣ" }, "geometry": { "type": "Point", "coordinates": [ 23.878792082882025, 38.047892259713542 ] } },
{ "type": "Feature", "properties": { "id": "16", "name": "ΠΛΑΤΕΙΑ ΒΙΓΛΑΣ" }, "geometry": { "type": "Point", "coordinates": [ 23.840943855754741, 38.061636276598811 ] } },
{ "type": "Feature", "properties": { "id": "17", "name": "ΠΛΑΤΕΙΑ ΑΓΙΟΥ ΓΕΩΡΓΙΟΥ" }, "geometry": { "type": "Point", "coordinates": [ 23.836651648125653, 38.060913125681878 ] } },
{ "type": "Feature", "properties": { "id": "18", "name": "ΠΑΙΔΙΚΗ ΧΑΡΑ" }, "geometry": { "type": "Point", "coordinates": [ 23.842334183289815, 38.064893194059955 ] } },
{ "type": "Feature", "properties": { "id": "19", "name": "ΠΑΙΔΙΚΗ ΧΑΡΑ" }, "geometry": { "type": "Point", "coordinates": [ 23.861437199088485, 38.061288390344082 ] } },
{ "type": "Feature", "properties": { "id": "20", "name": "ΠΑΡΚΟ ΠΑΠΑΝΔΡΕΟΥ" }, "geometry": { "type": "Point", "coordinates": [ 23.86197862566824, 38.061599031692438 ] } },
{ "type": "Feature", "properties": { "id": "21", "name": "ΠΛΑΤΕΙΑ ΝΕΑΣ ΠΕΝΤΕΛΗΣ" }, "geometry": { "type": "Point", "coordinates": [ 23.858006211726281, 38.058396999517008 ] } },
{ "type": "Feature", "properties": { "id": "22", "name": "ΠΑΙΔΙΚΗ ΧΑΡΑ" }, "geometry": { "type": "Point", "coordinates": [ 23.857884911860666, 38.057515467393408 ] } },
{ "type": "Feature", "properties": { "id": "23", "name": "ΓΗΠΕΔΟ 5Χ5" }, "geometry": { "type": "Point", "coordinates": [ 23.871164404895808, 38.055889569839906 ] } },
{ "type": "Feature", "properties": { "id": "24", "name": "ΠΛΑΤΕΙΑ ΑΓΙΑΣ ΤΡΙΑΔΑΣ" }, "geometry": { "type": "Point", "coordinates": [ 23.870035674205777, 38.055134590396996 ] } },
{ "type": "Feature", "properties": { "id": "25", "name": "ΠΑΡΚΟ ΠΡΟΣΚΟΠΩΝ ΠΕΝΤΕΛΗΣ" }, "geometry": { "type": "Point", "coordinates": [ 23.861877453360496, 38.052025240020654 ] } },
{ "type": "Feature", "properties": { "id": "26", "name": "ΠΛΑΤΕΙΑ ΧΑΡΑΥΓΗΣ" }, "geometry": { "type": "Point", "coordinates": [ 23.868900091528147, 38.049614026540254 ] } },
{ "type": "Feature", "properties": { "id": "27", "name": "ΠΑΙΔΙΚΗ ΧΑΡΑ" }, "geometry": { "type": "Point", "coordinates": [ 23.868213845572704, 38.04864981214623 ] } },
{ "type": "Feature", "properties": { "id": "28", "name": "ΠΑΙΔΙΚΗ ΧΑΡΑ" }, "geometry": { "type": "Point", "coordinates": [ 23.870135152287581, 38.046691623444531 ] } },
{ "type": "Feature", "properties": { "id": "29", "name": "ΠΑΡΚΟ ΚΟΤΖΙΑ" }, "geometry": { "type": "Point", "coordinates": [ 23.860146095602452, 38.048907947030976 ] } },
{ "type": "Feature", "properties": { "id": "30", "name": "ΠΛΑΤΕΙΑ ΧΑΣΑΠΗ" }, "geometry": { "type": "Point", "coordinates": [ 23.859247639218697, 38.050446262450514 ] } },
{ "type": "Feature", "properties": { "id": "31", "name": "ΠΑΡΚΟ ΚΩΛΕΤΤΗ" }, "geometry": { "type": "Point", "coordinates": [ 23.856457511951064, 38.049341155434327 ] } },
{ "type": "Feature", "properties": { "id": "32", "name": "ΠΑΡΚΟ ΑΓΙΑΣ ΣΚΕΠΗΣ" }, "geometry": { "type": "Point", "coordinates": [ 23.851252636325906, 38.051679477524878 ] } },
{ "type": "Feature", "properties": { "id": "33", "name": "ΔΑΣΟΣ ΑΓΙΟΥ ΘΕΟΚΛΗΤΟΥ" }, "geometry": { "type": "Point", "coordinates": [ 23.848109577454927, 38.053076558981068 ] } },
{ "type": "Feature", "properties": { "id": "34", "name": "ΠΛΑΤΕΙΑ ΚΥΠΡΟΥ" }, "geometry": { "type": "Point", "coordinates": [ 23.852547466110387, 38.055732445659203 ] } },
{ "type": "Feature", "properties": { "id": "35", "name": "ΠΑΙΔΙΚΗ ΧΑΡΑ" }, "geometry": { "type": "Point", "coordinates": [ 23.852202079358396, 38.055458478395892 ] } },
{ "type": "Feature", "properties": { "id": "36", "name": "ΠΑΡΚΟ 25ΗΣ ΜΑΡΤΙΟΥ" }, "geometry": { "type": "Point", "coordinates": [ 23.850141618276247, 38.055565283277794 ] } },
{ "type": "Feature", "properties": { "id": "37", "name": "ΠΑΙΔΙΚΗ ΧΑΡΑ" }, "geometry": { "type": "Point", "coordinates": [ 23.848453045357804, 38.054268393112864 ] } },
{ "type": "Feature", "properties": { "id": "38", "name": "ΓΗΠΕΔΟ ΝΕΟΠΕΝΤΕΛΙΚΟΥ" }, "geometry": { "type": "Point", "coordinates": [ 23.853888691533925, 38.057788660730985 ] } },
{ "type": "Feature", "properties": { "id": "39", "name": "ΠΑΡΚΟ ΝΙΕΝ" }, "geometry": { "type": "Point", "coordinates": [ 23.847363994278474, 38.05674094296328 ] } },
{ "type": "Feature", "properties": { "id": "40", "name": "ΠΑΙΔΙΚΗ ΧΑΡΑ" }, "geometry": { "type": "Point", "coordinates": [ 23.849470617665144, 38.056634245936429 ] } },
{ "type": "Feature", "properties": { "id": "41", "name": "ΠΑΡΚΟ ΠΤΕΡΥΓΑΣ ΜΠΟΜΠΟΛΑ" }, "geometry": { "type": "Point", "coordinates": [ 23.842962545478631, 38.0568779909715 ] } },
{ "type": "Feature", "properties": { "id": "42", "name": "[ΑΙΔΙΚΗ ΧΑΡΑ" }, "geometry": { "type": "Point", "coordinates": [ 23.840148857378807, 38.056886355695319 ] } },
{ "type": "Feature", "properties": { "id": "43", "name": "ΓΗΠΕΔΟ ΜΕΛΙΣΣΙΩΝ \"ΚΥΡΙΑΚΟΣ ΤΣΙΜΠΡΙΚΙΔΗΣ\"" }, "geometry": { "type": "Point", "coordinates": [ 23.837469030423676, 38.055460307160367 ] } },
{ "type": "Feature", "properties": { "id": "44", "name": "ΠΑΙΔΙΚΗ ΧΑΡΑ" }, "geometry": { "type": "Point", "coordinates": [ 23.836818624392798, 38.055827156715985 ] } },
{ "type": "Feature", "properties": { "id": "45", "name": "ΠΑΡΚΟ ΝΟΣΟΚΟΜΕΙΟΥ ΑΜΑΛΙΑ ΦΛΕΜΙΝΓΚ" }, "geometry": { "type": "Point", "coordinates": [ 23.834382318943995, 38.053839112012554 ] } },
{ "type": "Feature", "properties": { "id": "46", "name": "ΠΑΡΚΟ ΤΣΑΓΚΑΡΗ" }, "geometry": { "type": "Point", "coordinates": [ 23.833876373484063, 38.053212310184207 ] } },
{ "type": "Feature", "properties": { "id": "47", "name": "ΓΗΠΕΔΑ ΤΕΝΙΣ ΜΟΣΧΟΠΟΛΕΩΣ" }, "geometry": { "type": "Point", "coordinates": [ 23.83068672956945, 38.052969177582867 ] } },
{ "type": "Feature", "properties": { "id": "48", "name": "ΠΑΙΔΙΚΗ ΧΑΡΑ" }, "geometry": { "type": "Point", "coordinates": [ 23.830235286311584, 38.052891025353695 ] } },
{ "type": "Feature", "properties": { "id": "49", "name": "ΠΑΙΔΙΚΗ ΧΑΡΑ" }, "geometry": { "type": "Point", "coordinates": [ 23.83058207117984, 38.055019008757071 ] } },
{ "type": "Feature", "properties": { "id": "50", "name": "ΠΑΡΚΟ 28ΗΣ ΟΚΤΩΒΡΙΟΥ" }, "geometry": { "type": "Point", "coordinates": [ 23.830606550912691, 38.055237870826197 ] } },
{ "type": "Feature", "properties": { "id": "51", "name": "ΠΑΙΔΙΚΗ ΧΑΡΑ" }, "geometry": { "type": "Point", "coordinates": [ 23.834971392448303, 38.050828031151305 ] } },
{ "type": "Feature", "properties": { "id": "52", "name": "ΠΑΡΚΟ ΜΑΚΡΥΓΙΑΝΝΗ" }, "geometry": { "type": "Point", "coordinates": [ 23.834526807274901, 38.050268181732726 ] } },
{ "type": "Feature", "properties": { "id": "53", "name": "ΠΑΡΚΟ ΘΗΡΑΣ" }, "geometry": { "type": "Point", "coordinates": [ 23.833298905028503, 38.045993240769896 ] } },
{ "type": "Feature", "properties": { "id": "54", "name": "ΠΑΙΔΙΚΗ ΧΑΡΑ" }, "geometry": { "type": "Point", "coordinates": [ 23.833209023495815, 38.045801639538347 ] } },
{ "type": "Feature", "properties": { "id": "55", "name": "ΠΑΙΔΙΚΗ ΧΑΡΑ" }, "geometry": { "type": "Point", "coordinates": [ 23.838797896016743, 38.048060011672476 ] } },
{ "type": "Feature", "properties": { "id": "56", "name": "ΣΠΗΛΙΑ ΝΤΑΒΕΛΗ" }, "geometry": { "type": "Point", "coordinates": [ 23.876894903372374, 38.070557852361247 ] } },
{ "type": "Feature", "properties": { "id": "57", "name": "Α.Τ. ΜΕΛΙΣΣΙΩΝ" }, "geometry": { "type": "Point", "coordinates": [ 23.835621505989849, 38.057880788688756 ] } },
{ "type": "Feature", "properties": { "id": "58", "name": "Α.Τ. ΠΕΝΤΕΛΗΣ" }, "geometry": { "type": "Point", "coordinates": [ 23.86917112329197, 38.054433841243551 ] } },
{ "type": "Feature", "properties": { "id": "59", "name": "ΚΕΠ ΜΕΛΙΣΣΙΩΝ" }, "geometry": { "type": "Point", "coordinates": [ 23.831191890176093, 38.052251498402462 ] } },
{ "type": "Feature", "properties": { "id": "60", "name": "ΚΕΠ ΝΕΑΣ ΠΕΝΤΕΛΗΣ" }, "geometry": { "type": "Point", "coordinates": [ 23.856432032960861, 38.05857383403297 ] } }
]
}
